[
  {
    "caseId": 1,
    "name": "John",
    "personalNumber": 9515106046,
    "emergencyNumber": 9765346124,
    "Address": "Block- 23-34, II lane, Hibuscus,Sydney",
    "Location": "17.685353,83.201665",
    "Color": "red"
  },
  {
    "caseId": 2,
    "name": "Eldin",
    "personalNumber": 9515106046,
    "emergencyNumber": 9765346124,
    "address": "Block- 23-34, II lane, Hibuscus,Sydney",
    "location": "17.685353,83.201665",
    "color": "green"
  },
  {
    "caseId": 3,
    "name": "Chirs",
    "personalNumber": 9515106046,
    "emergencyNumber": 9765346124,
    "Address": "Block- 23-34, II lane, Hibuscus,Sydney",
    "Location": "17.685353,83.201665",
    "color": "red"
  },
  {
    "caseId": 4,
    "name": "Adewale",
    "personalNumber": 9515106046,
    "emergencyNumber": 9765346124,
    "Address": "Block- 23-34, II lane, Hibuscus,Sydney",
    "Location": "17.685353,83.201665",
    "color": "red"
  },
  {
    "caseId": 5,
    "name": "David",
    "personalNumber": 9515106046,
    "emergencyNumber": 9765346124,
    "Address": "Block- 23-34, II lane, Hibuscus,Sydney",
    "Location": "17.685353,83.201665",
    "color": "yellow"
  },
  {
    "caseId": 6,
    "name": "Shwan",
    "personalNumber": 9515106046,
    "emergencyNumber": 9765346124,
    "Address": "Block- 23-34, II lane, Hibuscus,Sydney",
    "Location": "17.685353,83.201665",
    "color": "green"
  },
  {
    "caseId": 7,
    "name": "Rahul",
    "personalNumber": 9515106046,
    "emergencyNumber": 9765346124,
    "Address": "Block- 23-34, II lane, Hibuscus,Sydney",
    "Location": "17.685353,83.201665",
    "color": "green"
  },
  {
    "caseId": 8,
    "name": "Sridhar",
    "personalNumber": 9515106046,
    "emergencyNumber": 9765346124,
    "Address": "Block- 23-34, II lane, Hibuscus,Sydney",
    "Location": "17.685353,83.201665",
    "color": "green"
  },
  {
    "caseId": 9,
    "name": "Subodh",
    "personalNumber": 9515106046,
    "emergencyNumber": 9765346124,
    "Address": "Block- 23-34, II lane, Hibuscus,Sydney",
    "Location": "17.685353,83.201665",
    "color": "green"
  },
  {
    "caseId": 10,
    "name": "Teja",
    "personalNumber": 9515106046,
    "emergencyNumber": 9765346124,
    "Address": "Block- 23-34, II lane, Hibuscus,Sydney",
    "Location": "17.685353,83.201665",
    "color": "green"
  },
  {
    "caseId": 11,
    "name": "Bhanu",
    "personalNumber": 9515106046,
    "emergencyNumber": 9765346124,
    "Address": "Block- 23-34, II lane, Hibuscus,Sydney",
    "Location": "17.685353,83.201665",
    "color": "green"
  }
]
